[    
        {
        "name": "Gare de Lyon",
        "city": "Paris",
        "state": "Paris",
        "country": "France",
        "lat": "48.8443",
        "long": "2.3744",
        "zoom": "12",
        "hasPiano": "true",
        "pianoShortLocation": "Gare de Lyon has a piano",
        "lastConfirmed": "April 2024",
        "description": "Gare de Lyon has a piano, reportedly in Hall 2."
        },
        {
        "name": "Prague Main Railway Station",
        "city": "Prague",
        "state": "Prague",
        "country": "Czechia",
        "lat": "50.0832",
        "long": "14.4353",
        "zoom": "12",
        "hasPiano": "true",
        "pianoShortLocation": "Prague Main Railway Station has a piano",
        "lastConfirmed": "April 2024",
        "description": "Prague Main Railway Station has a piano, but it may move around within the station and/or only be available temporarily."
        },
        {
        "name": "London St. Pancras",
        "city": "London",
        "state": "England",
        "country": "United Kingdom",
        "lat": "51.5311",
        "long": "0.1259",
        "zoom": "12",
        "hasPiano": "true",
        "pianoShortLocation": "London St. Pancras has the Sir Elton John piano.",
        "lastConfirmed": "April 2024",
        "description": "London St. Pancras has the Sir Elton John piano, donated to the station by Sir Elton John. See https://stpancras.com/news-events/sir-elton-john-s-piano for more information."
        },
        {
        "name": "Pearse Station",
        "city": "Dublin",
        "state": "Republic of Ireland",
        "country": "Republic of Ireland",
        "lat": "53.34332545264078",
        "long": "-6.247987337793855",
        "zoom": "12",
        "hasPiano": "true",
        "pianoShortLocation": "Pearse Station has a piano",
        "lastConfirmed": "April 2024",
        "description": "Pearse Station has a piano"
        },
        {
        "name": "New Street Station, Birmingham",
        "city": "Birmingham",
        "state": "England",
        "country": "United Kingdom",
        "lat": "52.4778",
        "long": "1.8990",
        "zoom": "12",
        "hasPiano": "true",
        "pianoShortLocation": "New Street Station, Birmingham has a piano",
        "lastConfirmed": "April 2024",
        "description": "New Street Station, Birmingham has a piano"
        },
        {
        "name": "Takanawa Gateway Station",
        "city": "Tokyo",
        "state": "Tokyo",
        "country": "Japan",
        "lat": "35.63558171083573",
        "long": "139.740691625168",
        "zoom": "12",
        "hasPiano": "true",
        "pianoShortLocation": "Takanawa Gateway Station has a piano",
        "lastConfirmed": "April 2024",
        "description": "Takanawa Gateway Station has a piano"
        },
        {
        "name": "Lewisham",
        "city": "Lewisham",
        "state": "London",
        "country": "United Kingdom",
        "lat": "51.4654",
        "long": "0.0133",
        "zoom": "12",
        "hasPiano": "true",
        "pianoShortLocation": "Lewisham train station has a piano",
        "lastConfirmed": "April 2024",
        "description": "Lewisham train station has a piano."
        },
        {
        "name": "Abbey Wood",
        "city": "London",
        "state": "London",
        "country": "United Kingdom",
        "lat": "51.4911",
        "long": "0.1213",
        "zoom": "12",
        "hasPiano": "true",
        "pianoShortLocation": "Abbey Wood train station has a piano",
        "lastConfirmed": "April 2024",
        "description": "Abbey Wood train station has a piano. The piano is sometimes up in the main station, other times at the Lizzie Line exit."
        },
        {
        "name": "Wuppertal Hauptbahnhof",
        "city": "Wuppertal",
        "state": "Germany",
        "country": "Germany",
        "lat": "51.256214",
        "long": "7.150764",
        "zoom": "12",
        "hasPiano": "true",
        "pianoShortLocation": "Wuppertal train station has a piano as of April 2024",
        "lastConfirmed": "April 2024",
        "description": "VWuppertal train station has a piano as of April 2024. The pedal on the piano is broken."
    },{
        "name": "Niagra Falls",
        "city": "Niagra",
        "state": "Ontario",
        "country": "Canada",
        "lat": "43.1088",
        "long": "79.0634",
        "zoom": "12",
        "hasPiano": "true",
        "pianoShortLocation": "VIA Rail (CA) has a piano in the Niagra Falls, ON station as of February 2023",
        "lastConfirmed": "2024",
        "description": "VIA Rail (CA) has a piano in the Niagra Falls, ON station as of February 2023"
    },{
        "name": "Glasgow Queen Street",
        "city": "Glasgow",
        "state": "Scotland",
        "country": "United Kingdom",
        "lat": "55.8625",
        "long": "4.2512",
        "zoom": "12",
        "hasPiano": "true",
        "pianoShortLocation": "No location provided.",
        "lastConfirmed": "2024",
        "description": "Glasgow Queen Street has a piano, but no location within the station has been provided. If you see the piano, let us know so we can update this website!"
    },{
        "name": "Brighton",
        "city": "Brighton",
        "state": "England",
        "country": "United Kingdom",
        "lat": "50.8289",
        "long": "0.1410",
        "zoom": "12",
        "hasPiano": "true",
        "pianoShortLocation": "Near the gates",
        "lastConfirmed": "2024",
        "description": "Brighton train station has a piano near the ticket gates. The piano is locked in the morning. The piano is not in a good condition, but is playable."
    },
    {
        "name": "Edinburgh Waverley",
        "city": "Edinburgh",
        "state": "Scotland",
        "country": "United Kingdom",
        "lat": "55.9524",
        "long": "3.1883",
        "zoom": "12",
        "hasPiano": "true",
        "pianoShortLocation": "Near platform 2",
        "lastConfirmed": "2024",
        "description": "Edinburgh Waverley train station has a piano near platform 2. The piano is playable at any time of day."
    }
]
